[
    {
        "State": "Alabama",
        "Military Bases Info": {
            "Military Branch": "Army",
            "Site Name": "Allen Stagefield AL",
            "Country": "United States",
            "Latitude": 31.2309993833,
            "Longitude": -85.6506347178
        }
    },
    {
        "State": "Alabama",
        "Military Bases Info": {
            "Military Branch": "Army",
            "Site Name": "Louisville Stagefield AL",
            "Country": "United States",
            "Latitude": 31.8157331822,
            "Longitude": -85.6497984957
        }
    },
    {
        "State": "New Mexico",
        "Military Bases Info": {
            "Military Branch": "Army",
            "Site Name": "White Sands Missile Range NM",
            "Country": "United States",
            "Latitude": 33.1594636742,
            "Longitude": -106.425696182
        }
    },
    {
        "State": "Hawaii",
        "Military Bases Info": {
            "Military Branch": "Marine Corps",
            "Site Name": "MCB Camp Smith",
            "Country": "United States",
            "Latitude": 21.3866284869,
            "Longitude": -157.905641308
        }
    },
    {
        "State": "Hawaii",
        "Military Bases Info": {
            "Military Branch": "Marine Corps",
            "Site Name": "MC Trng Area Bellows",
            "Country": "United States",
            "Latitude": 21.3621462703,
            "Longitude": -157.718266082
        }
    },
    {
        "State": "Illinois",
        "Military Bases Info": {
            "Military Branch": "Navy",
            "Site Name": "Glenview",
            "Country": "United States",
            "Latitude": 42.0917332083,
            "Longitude": -87.836545042
        }
    },
    {
        "State": "Texas",
        "Military Bases Info": {
            "Military Branch": "Navy",
            "Site Name": "ALF Orange",
            "Country": "United States",
            "Latitude": 27.8965304593,
            "Longitude": -98.0434307225
        }
    },
    {
        "State": "Idaho",
        "Military Bases Info": {
            "Military Branch": "Air Force",
            "Site Name": "Saylor Creek Air Force Range",
            "Country": "United States",
            "Latitude": 42.7402329675,
            "Longitude": -115.563336812
        }
    },
    {
        "State": "Texas",
        "Military Bases Info": {
            "Military Branch": "Air Force",
            "Site Name": "Laughlin AFB",
            "Country": "United States",
            "Latitude": 29.3567318395,
            "Longitude": -100.782932919
        }
    },
    {
        "State": "Colorado",
        "Military Bases Info": {
            "Military Branch": "Air Force",
            "Site Name": "Buckley AFB",
            "Country": "United States",
            "Latitude": 39.7066728959,
            "Longitude": -104.757676168
        }
    },
    {
        "State": "Florida",
        "Military Bases Info": {
            "Military Branch": "Air Force",
            "Site Name": "Tyndall AFB",
            "Country": "United States",
            "Latitude": 30.0454712012,
            "Longitude": -85.5513688862
        }
    },
    {
        "State": "Mississippi",
        "Military Bases Info": {
            "Military Branch": "Air Force",
            "Site Name": "Columbus Auxiliary Airfield",
            "Country": "United States",
            "Latitude": 32.9398358551,
            "Longitude": -88.5791426256
        }
    },
    {
        "State": "Texas",
        "Military Bases Info": {
            "Military Branch": "Air Force",
            "Site Name": "Goodfellow AFB",
            "Country": "United States",
            "Latitude": 31.4321781557,
            "Longitude": -100.404389232
        }
    },
    {
        "State": "Alaska",
        "Military Bases Info": {
            "Military Branch": "Air Force",
            "Site Name": "Fort Richardson",
            "Country": "United States",
            "Latitude": 61.2656445617,
            "Longitude": -149.641025468
        }
    },
    {
        "State": "Alaska",
        "Military Bases Info": {
            "Military Branch": "Air Force",
            "Site Name": "Birch Lake Recreation Annex",
            "Country": "United States",
            "Latitude": 64.3175377667,
            "Longitude": -146.646980929
        }
    },
    {
        "State": "Kentucky",
        "Military Bases Info": {
            "Military Branch": "Air Force Guard",
            "Site Name": "Louisville IAP-Standiford FL Site 1",
            "Country": "United States",
            "Latitude": 38.1779889015,
            "Longitude": -85.7237952525
        }
    },
    {
        "State": "Texas",
        "Military Bases Info": {
            "Military Branch": "Air Force",
            "Site Name": "Kelly AFB",
            "Country": "United States",
            "Latitude": 29.3820160313,
            "Longitude": -98.5645372905
        }
    },
    {
        "State": "Arkansas",
        "Military Bases Info": {
            "Military Branch": "Army Guard",
            "Site Name": "NG Camp Joseph T Robinson",
            "Country": "United States",
            "Latitude": 34.9000362492,
            "Longitude": -92.3068019391
        }
    },
    {
        "State": "Nebraska",
        "Military Bases Info": {
            "Military Branch": "Army Guard",
            "Site Name": "NG Camp Ashland",
            "Country": "United States",
            "Latitude": 41.0800682176,
            "Longitude": -96.3363620056
        }
    },
    {
        "State": "West Virginia",
        "Military Bases Info": {
            "Military Branch": "Army Guard",
            "Site Name": "NG Volkstone",
            "Country": "United States",
            "Latitude": 39.4547971565,
            "Longitude": -79.6692506335
        }
    },
    {
        "State": "California",
        "Military Bases Info": {
            "Military Branch": "Navy",
            "Site Name": "NAVBASE Coronado",
            "Country": "United States",
            "Latitude": 32.7000190451,
            "Longitude": -117.207088939
        }
    },
    {
        "State": "North Dakota",
        "Military Bases Info": {
            "Military Branch": "Air Force",
            "Site Name": "Grand Forks Defense Fuel Support Point",
            "Country": "United States",
            "Latitude": 47.9486816236,
            "Longitude": -97.0860532381
        }
    },
    {
        "State": "Texas",
        "Military Bases Info": {
            "Military Branch": "Army",
            "Site Name": "Fort Bliss",
            "Country": "United States",
            "Latitude": 32.26208341,
            "Longitude": -106.075404444
        }
    },
    {
        "State": "Washington",
        "Military Bases Info": {
            "Military Branch": "Navy",
            "Site Name": "Jim Creek",
            "Country": "United States",
            "Latitude": 48.1997770937,
            "Longitude": -121.925681299
        }
    },
    {
        "State": "Hawaii",
        "Military Bases Info": {
            "Military Branch": "Army",
            "Site Name": "Pohakuloa Training Area",
            "Country": "United States",
            "Latitude": 19.7144170574,
            "Longitude": -155.626600781
        }
    },
    {
        "State": "North Carolina",
        "Military Bases Info": {
            "Military Branch": "Army",
            "Site Name": "Military Ocean Tml Sunny Point",
            "Country": "United States",
            "Latitude": 34.0182119696,
            "Longitude": -77.9732412004
        }
    },
    {
        "State": "Hawaii",
        "Military Bases Info": {
            "Military Branch": "Army",
            "Site Name": "Waianae Kai Military Reservation",
            "Country": "United States",
            "Latitude": 21.4469197196,
            "Longitude": -158.191081477
        }
    },
    {
        "State": "New Jersey",
        "Military Bases Info": {
            "Military Branch": "Army",
            "Site Name": "Picatinny Arsenal",
            "Country": "United States",
            "Latitude": 40.9543096396,
            "Longitude": -74.5446255065
        }
    },
    {
        "State": "Virginia",
        "Military Bases Info": {
            "Military Branch": "Navy",
            "Site Name": "Arlington Service Ctr",
            "Country": "United States",
            "Latitude": 38.8677348506,
            "Longitude": -77.0793350205
        }
    },
    {
        "State": "Mississippi",
        "Military Bases Info": {
            "Military Branch": "Navy",
            "Site Name": "CBC Gulfport MS",
            "Country": "United States",
            "Latitude": 30.3779481049,
            "Longitude": -89.1263993012
        }
    },
    {
        "State": "Utah",
        "Military Bases Info": {
            "Military Branch": "Air Force",
            "Site Name": "UTTR - North",
            "Country": "United States",
            "Latitude": 41.0243231993,
            "Longitude": -113.216942448
        }
    },
    {
        "State": "California",
        "Military Bases Info": {
            "Military Branch": "Air Force Reserve",
            "Site Name": "March ARB",
            "Country": "United States",
            "Latitude": 33.8888501058,
            "Longitude": -117.258472446
        }
    },
    {
        "State": "New Hampshire",
        "Military Bases Info": {
            "Military Branch": "Air Force",
            "Site Name": "Newington Defense Fuel Support Point",
            "Country": "United States",
            "Latitude": 43.1138099132,
            "Longitude": -70.814765745
        }
    },
    {
        "State": "Arizona",
        "Military Bases Info": {
            "Military Branch": "Air Force",
            "Site Name": "Gila Bend Air Force Auxiliary Field",
            "Country": "United States",
            "Latitude": 32.890154532,
            "Longitude": -112.728184427
        }
    },
    {
        "State": "New Jersey",
        "Military Bases Info": {
            "Military Branch": "Air Force",
            "Site Name": "Lakehurst",
            "Country": "United States",
            "Latitude": 40.0272120222,
            "Longitude": -74.3752601945
        }
    },
    {
        "State": "Texas",
        "Military Bases Info": {
            "Military Branch": "Air Force",
            "Site Name": "Randolph AFB",
            "Country": "United States",
            "Latitude": 29.5294863383,
            "Longitude": -98.2783394708
        }
    },
    {
        "State": "Georgia",
        "Military Bases Info": {
            "Military Branch": "Army Guard",
            "Site Name": "NG Macon Readiness Center",
            "Country": "United States",
            "Latitude": 32.8613917382,
            "Longitude": -83.6056544923
        }
    },
    {
        "State": "North Carolina",
        "Military Bases Info": {
            "Military Branch": "Army Guard",
            "Site Name": "NG MTA Camp Butner",
            "Country": "United States",
            "Latitude": 36.2015259374,
            "Longitude": -78.801333792
        }
    },
    {
        "State": "Oregon",
        "Military Bases Info": {
            "Military Branch": "Army Guard",
            "Site Name": "NG MTA Camp Rilea",
            "Country": "United States",
            "Latitude": 46.1288264462,
            "Longitude": -123.944346596
        }
    },
    {
        "State": "Kentucky",
        "Military Bases Info": {
            "Military Branch": "Army Guard",
            "Site Name": "NG Frankfort Boone NG Center",
            "Country": "United States",
            "Latitude": 38.1853052947,
            "Longitude": -84.9089928237
        }
    },
    {
        "State": "Hawaii",
        "Military Bases Info": {
            "Military Branch": "Navy",
            "Site Name": "Makaha Ridge",
            "Country": "United States",
            "Latitude": 22.1303466109,
            "Longitude": -159.725349007
        }
    },
    {
        "State": "Alabama",
        "Military Bases Info": {
            "Military Branch": "Navy",
            "Site Name": "NOLF Wolf",
            "Country": "United States",
            "Latitude": 30.3446850234,
            "Longitude": -87.5407700889
        }
    },
    {
        "State": "Maryland",
        "Military Bases Info": {
            "Military Branch": "Navy",
            "Site Name": "NAVSUPPACT Annapolis",
            "Country": "United States",
            "Latitude": 38.9820668667,
            "Longitude": -76.4838558469
        }
    },
    {
        "State": "Florida",
        "Military Bases Info": {
            "Military Branch": "Air Force",
            "Site Name": "Jonathan Dickinson Tracking Annex",
            "Country": "United States",
            "Latitude": 26.9825205984,
            "Longitude": -80.1068614293
        }
    },
    {
        "State": "Georgia",
        "Military Bases Info": {
            "Military Branch": "Army",
            "Site Name": "Fort Gordon",
            "Country": "United States",
            "Latitude": 33.3566628083,
            "Longitude": -82.2372795186
        }
    },
    {
        "State": "North Carolina",
        "Military Bases Info": {
            "Military Branch": "Army",
            "Site Name": "Camp Mackall",
            "Country": "United States",
            "Latitude": 35.0301022844,
            "Longitude": -79.4816241675
        }
    },
    {
        "State": "South Carolina",
        "Military Bases Info": {
            "Military Branch": "Marine Corps",
            "Site Name": "MCAS Beaufort",
            "Country": "United States",
            "Latitude": 32.484834871,
            "Longitude": -80.7071873496
        }
    },
    {
        "State": "Virginia",
        "Military Bases Info": {
            "Military Branch": "Navy",
            "Site Name": "NAVSUPPACT Norfolk NSY",
            "Country": "United States",
            "Latitude": 36.816475644,
            "Longitude": -76.2994222614
        }
    },
    {
        "State": "Virginia",
        "Military Bases Info": {
            "Military Branch": "Navy",
            "Site Name": "Lafayette Rvr Complex",
            "Country": "United States",
            "Latitude": 36.9022639632,
            "Longitude": -76.3023442266
        }
    },
    {
        "State": "Washington",
        "Military Bases Info": {
            "Military Branch": "Navy",
            "Site Name": "Bangor WA",
            "Country": "United States",
            "Latitude": 47.7233921483,
            "Longitude": -122.714839767
        }
    },
    {
        "State": "Florida",
        "Military Bases Info": {
            "Military Branch": "Air Force",
            "Site Name": "Eglin Air Force Auxiliary Field 3 Duke Fld",
            "Country": "United States",
            "Latitude": 30.6490705509,
            "Longitude": -86.5276912145
        }
    },
    {
        "State": "Ohio",
        "Military Bases Info": {
            "Military Branch": "Air Force",
            "Site Name": "Wright-Patt AFB",
            "Country": "United States",
            "Latitude": 39.8174211612,
            "Longitude": -84.0507057402
        }
    },
    {
        "State": "Texas",
        "Military Bases Info": {
            "Military Branch": "Air Force",
            "Site Name": "Lackland AFB",
            "Country": "United States",
            "Latitude": 29.38670604,
            "Longitude": -98.6180831793
        }
    },
    {
        "State": "Illinois",
        "Military Bases Info": {
            "Military Branch": "Army Guard",
            "Site Name": "NG Sparta Armory",
            "Country": "United States",
            "Latitude": 38.160004736,
            "Longitude": -89.7239409546
        }
    },
    {
        "State": "Missouri",
        "Military Bases Info": {
            "Military Branch": "Army Guard",
            "Site Name": "NG MTA Camp Crowder Neosho",
            "Country": "United States",
            "Latitude": 36.7939679589,
            "Longitude": -94.3642921962
        }
    },
    {
        "State": "Pennsylvania",
        "Military Bases Info": {
            "Military Branch": "Army Guard",
            "Site Name": "NG Hollidaysburg Readiness Center",
            "Country": "United States",
            "Latitude": 40.4394550384,
            "Longitude": -78.4147910881
        }
    },
    {
        "State": "Louisiana",
        "Military Bases Info": {
            "Military Branch": "Army Guard",
            "Site Name": "NG Camp Beauregard",
            "Country": "United States",
            "Latitude": 31.3776577083,
            "Longitude": -92.3866852494
        }
    },
    {
        "State": "Montana",
        "Military Bases Info": {
            "Military Branch": "Army Guard",
            "Site Name": "NG Helena Aviation RC- AASF- C12",
            "Country": "United States",
            "Latitude": 46.608471557,
            "Longitude": -111.971041404
        }
    },
    {
        "State": "Michigan",
        "Military Bases Info": {
            "Military Branch": "Army Guard",
            "Site Name": "NG Lansing Joint Forces Readiness Center",
            "Country": "United States",
            "Latitude": 42.7681480625,
            "Longitude": -84.5713082578
        }
    },
    {
        "State": "Ohio",
        "Military Bases Info": {
            "Military Branch": "Army Guard",
            "Site Name": "NG Camp Perry Joint Training Center",
            "Country": "United States",
            "Latitude": 41.54343955,
            "Longitude": -83.0221332784
        }
    },
    {
        "State": "Oklahoma",
        "Military Bases Info": {
            "Military Branch": "Army Guard",
            "Site Name": "NG Oklahoma Military Department",
            "Country": "United States",
            "Latitude": 35.5035184926,
            "Longitude": -97.4701679958
        }
    },
    {
        "State": "Kansas",
        "Military Bases Info": {
            "Military Branch": "Army Guard",
            "Site Name": "NG Salina KS Training Center",
            "Country": "United States",
            "Latitude": 38.785720474,
            "Longitude": -97.6388622613
        }
    },
    {
        "State": "Arizona",
        "Military Bases Info": {
            "Military Branch": "Navy",
            "Site Name": "NAVOBSSTA Flagstaff AZ",
            "Country": "United States",
            "Latitude": 35.1875402981,
            "Longitude": -111.741594825
        }
    },
    {
        "State": "Nevada",
        "Military Bases Info": {
            "Military Branch": "Navy",
            "Site Name": "Target B-16",
            "Country": "United States",
            "Latitude": 39.3394330115,
            "Longitude": -118.880780116
        }
    },
    {
        "State": "Alabama",
        "Military Bases Info": {
            "Military Branch": "Navy",
            "Site Name": "Barin Field",
            "Country": "United States",
            "Latitude": 30.3910783123,
            "Longitude": -87.6313191791
        }
    },
    {
        "State": "California",
        "Military Bases Info": {
            "Military Branch": "Navy",
            "Site Name": "Old Town Site 1",
            "Country": "United States",
            "Latitude": 32.7486743431,
            "Longitude": -117.197008871
        }
    },
    {
        "State": "California",
        "Military Bases Info": {
            "Military Branch": "Navy",
            "Site Name": "Broadway Complex",
            "Country": "United States",
            "Latitude": 32.7136561362,
            "Longitude": -117.172024897
        }
    },
    {
        "State": "California",
        "Military Bases Info": {
            "Military Branch": "Navy",
            "Site Name": "Mission Gorge Rec Area",
            "Country": "United States",
            "Latitude": 32.8048190699,
            "Longitude": -117.093958022
        }
    },
    {
        "State": "New Jersey",
        "Military Bases Info": {
            "Military Branch": "Air Force",
            "Site Name": "McGuire",
            "Country": "United States",
            "Latitude": 40.0256494173,
            "Longitude": -74.5801329664
        }
    },
    {
        "State": "Tennessee",
        "Military Bases Info": {
            "Military Branch": "Navy",
            "Site Name": "Northside Mid-South",
            "Country": "United States",
            "Latitude": 35.3427908944,
            "Longitude": -89.8597481799
        }
    },
    {
        "State": "Tennessee",
        "Military Bases Info": {
            "Military Branch": "Navy",
            "Site Name": "NSWC Carderock Div",
            "Country": "United States",
            "Latitude": 35.0872036174,
            "Longitude": -90.1390498645
        }
    },
    {
        "State": "Oregon",
        "Military Bases Info": {
            "Military Branch": "Army",
            "Site Name": "Umatilla Chemical Depot",
            "Country": "United States",
            "Latitude": 45.8426458207,
            "Longitude": -119.437655677
        }
    },
    {
        "State": "Ohio",
        "Military Bases Info": {
            "Military Branch": "Army",
            "Site Name": "Defense Supply Center Columbus",
            "Country": "United States",
            "Latitude": 39.9796100871,
            "Longitude": -82.8985258467
        }
    },
    {
        "State": "Michigan",
        "Military Bases Info": {
            "Military Branch": "Army",
            "Site Name": "US Army Garrison Selfridge",
            "Country": "United States",
            "Latitude": 42.6609659498,
            "Longitude": -82.8128744872
        }
    },
    {
        "State": "Hawaii",
        "Military Bases Info": {
            "Military Branch": "Army",
            "Site Name": "Pupukea Paalaa Uka Mil Road",
            "Country": "United States",
            "Latitude": 19.9692428627,
            "Longitude": -155.719658833
        }
    },
    {
        "State": "South Carolina",
        "Military Bases Info": {
            "Military Branch": "Marine Corps",
            "Site Name": "MCRD Beaufort",
            "Country": "United States",
            "Latitude": 32.337579472,
            "Longitude": -80.69617786
        }
    },
    {
        "State": "Virginia",
        "Military Bases Info": {
            "Military Branch": "Marine Corps",
            "Site Name": "Marine Corps Museum",
            "Country": "United States",
            "Latitude": 38.5203611824,
            "Longitude": -77.3647271918
        }
    },
    {
        "State": "Pennsylvania",
        "Military Bases Info": {
            "Military Branch": "Navy",
            "Site Name": "Det Phil Pny Annex",
            "Country": "United States",
            "Latitude": 39.8917550243,
            "Longitude": -75.1787438843
        }
    },
    {
        "State": "Rhode Island",
        "Military Bases Info": {
            "Military Branch": "Navy",
            "Site Name": "Naval Station Newport RI",
            "Country": "United States",
            "Latitude": 41.535278318,
            "Longitude": -71.3096354954
        }
    },
    {
        "State": "Utah",
        "Military Bases Info": {
            "Military Branch": "Air Force",
            "Site Name": "Utah Test and Training Range South UT",
            "Country": "United States",
            "Latitude": 40.4970086744,
            "Longitude": -113.563257825
        }
    },
    {
        "State": "Utah",
        "Military Bases Info": {
            "Military Branch": "Air Force",
            "Site Name": "Hill AFB",
            "Country": "United States",
            "Latitude": 41.128082376,
            "Longitude": -111.991247141
        }
    },
    {
        "State": "Ohio",
        "Military Bases Info": {
            "Military Branch": "Air Force Reserve",
            "Site Name": "Youngstown",
            "Country": "United States",
            "Latitude": 41.2673838021,
            "Longitude": -80.6786812118
        }
    },
    {
        "State": "California",
        "Military Bases Info": {
            "Military Branch": "Air Force",
            "Site Name": "Travis AFB",
            "Country": "United States",
            "Latitude": 38.2645314897,
            "Longitude": -121.942797537
        }
    },
    {
        "State": "Colorado",
        "Military Bases Info": {
            "Military Branch": "Air Force",
            "Site Name": "The Farish Memorial Recreational Annex",
            "Country": "United States",
            "Latitude": 38.9991596818,
            "Longitude": -104.999644284
        }
    },
    {
        "State": "Indiana",
        "Military Bases Info": {
            "Military Branch": "Air Force Reserve",
            "Site Name": "Grissom ARB",
            "Country": "United States",
            "Latitude": 40.6539758948,
            "Longitude": -86.1518428016
        }
    },
    {
        "State": "California",
        "Military Bases Info": {
            "Military Branch": "Air Force",
            "Site Name": "Pillar Point AFS",
            "Country": "United States",
            "Latitude": 37.4989475163,
            "Longitude": -122.498033406
        }
    },
    {
        "State": "Alabama",
        "Military Bases Info": {
            "Military Branch": "Air Force",
            "Site Name": "Maxwell AFB",
            "Country": "United States",
            "Latitude": 32.3830076533,
            "Longitude": -86.356311322
        }
    },
    {
        "State": "Alaska",
        "Military Bases Info": {
            "Military Branch": "Air Force",
            "Site Name": "Eielson AFB",
            "Country": "United States",
            "Latitude": 64.6741086836,
            "Longitude": -147.060214201
        }
    },
    {
        "State": "New York",
        "Military Bases Info": {
            "Military Branch": "Air Force Guard",
            "Site Name": "Francis S Gabreski Airport",
            "Country": "United States",
            "Latitude": 40.8369889702,
            "Longitude": -72.6434132546
        }
    },
    {
        "State": "Rhode Island",
        "Military Bases Info": {
            "Military Branch": "Air Force Guard",
            "Site Name": "Quonset State Airport",
            "Country": "United States",
            "Latitude": 41.5969299432,
            "Longitude": -71.4184961614
        }
    },
    {
        "State": "Ohio",
        "Military Bases Info": {
            "Military Branch": "Army Guard",
            "Site Name": "NG Beightler Armory",
            "Country": "United States",
            "Latitude": 40.0892143305,
            "Longitude": -83.0674428948
        }
    },
    {
        "State": "West Virginia",
        "Military Bases Info": {
            "Military Branch": "Army Guard",
            "Site Name": "NG Elkins AFRC",
            "Country": "United States",
            "Latitude": 38.9545040967,
            "Longitude": -79.9791154099
        }
    },
    {
        "State": "Nevada",
        "Military Bases Info": {
            "Military Branch": "Army Guard",
            "Site Name": "NG Anthony Cometa Complex",
            "Country": "United States",
            "Latitude": 36.0173819633,
            "Longitude": -115.200674517
        }
    },
    {
        "State": "Vermont",
        "Military Bases Info": {
            "Military Branch": "Army Guard",
            "Site Name": "NG TS Camp Johnson",
            "Country": "United States",
            "Latitude": 44.4996364569,
            "Longitude": -73.1646298114
        }
    },
    {
        "State": "California",
        "Military Bases Info": {
            "Military Branch": "Navy",
            "Site Name": "Amphib Base Coronado East",
            "Country": "United States",
            "Latitude": 32.6678869196,
            "Longitude": -117.157059858
        }
    },
    {
        "State": "California",
        "Military Bases Info": {
            "Military Branch": "Navy",
            "Site Name": "Warner Springs Rts",
            "Country": "United States",
            "Latitude": 33.3401617984,
            "Longitude": -116.68138499
        }
    },
    {
        "State": "Pennsylvania",
        "Military Bases Info": {
            "Military Branch": "Army",
            "Site Name": "Carlisle Barracks",
            "Country": "United States",
            "Latitude": 40.2073636557,
            "Longitude": -77.1688037409
        }
    },
    {
        "State": "Colorado",
        "Military Bases Info": {
            "Military Branch": "Air Force",
            "Site Name": "Peterson AFB",
            "Country": "United States",
            "Latitude": 38.822867706,
            "Longitude": -104.696062064
        }
    },
    {
        "State": "Utah",
        "Military Bases Info": {
            "Military Branch": "Army",
            "Site Name": "Tooele Army Depot",
            "Country": "United States",
            "Latitude": 40.5270428347,
            "Longitude": -112.411357721
        }
    },
    {
        "State": "Colorado",
        "Military Bases Info": {
            "Military Branch": "Army",
            "Site Name": "Pueblo Chemical Depot",
            "Country": "United States",
            "Latitude": 38.3171489216,
            "Longitude": -104.33242089
        }
    },
    {
        "State": "Arizona",
        "Military Bases Info": {
            "Military Branch": "Army",
            "Site Name": "Yuma Proving Ground",
            "Country": "United States",
            "Latitude": 33.1053210003,
            "Longitude": -114.213605815
        }
    },
    {
        "State": "California",
        "Military Bases Info": {
            "Military Branch": "Army",
            "Site Name": "NTC and Fort Irwin",
            "Country": "United States",
            "Latitude": 35.3743268559,
            "Longitude": -116.633388332
        }
    },
    {
        "State": "Nevada",
        "Military Bases Info": {
            "Military Branch": "Army",
            "Site Name": "Hawthorne Army Depot",
            "Country": "United States",
            "Latitude": 38.5411518559,
            "Longitude": -118.654781649
        }
    },
    {
        "State": "Missouri",
        "Military Bases Info": {
            "Military Branch": "Army",
            "Site Name": "Lake City AAP",
            "Country": "United States",
            "Latitude": 39.0968504854,
            "Longitude": -94.2501544756
        }
    },
    {
        "State": "North Carolina",
        "Military Bases Info": {
            "Military Branch": "Marine Corps",
            "Site Name": "Point of Marsh Target",
            "Country": "United States",
            "Latitude": 35.0110394592,
            "Longitude": -76.4580795598
        }
    },
    {
        "State": "California",
        "Military Bases Info": {
            "Military Branch": "Marine Corps",
            "Site Name": "MCLB Barstow",
            "Country": "United States",
            "Latitude": 34.8595418908,
            "Longitude": -116.94453311
        }
    },
    {
        "State": "Virginia",
        "Military Bases Info": {
            "Military Branch": "Navy",
            "Site Name": "NAS Oceana VA",
            "Country": "United States",
            "Latitude": 36.8137764139,
            "Longitude": -76.0309744664
        }
    },
    {
        "State": "Nebraska",
        "Military Bases Info": {
            "Military Branch": "Air Force",
            "Site Name": "Offut AFB",
            "Country": "United States",
            "Latitude": 41.1180005456,
            "Longitude": -95.9064350192
        }
    },
    {
        "State": "North Dakota",
        "Military Bases Info": {
            "Military Branch": "Air Force",
            "Site Name": "Cavalier Asn",
            "Country": "United States",
            "Latitude": 48.7245309314,
            "Longitude": -97.9030701569
        }
    },
    {
        "State": "New Hampshire",
        "Military Bases Info": {
            "Military Branch": "Air Force",
            "Site Name": "New Boston Air Station",
            "Country": "United States",
            "Latitude": 42.937170491,
            "Longitude": -71.6412530372
        }
    },
    {
        "State": "Oregon",
        "Military Bases Info": {
            "Military Branch": "Air Force Guard",
            "Site Name": "Portland IAP ANG",
            "Country": "United States",
            "Latitude": 45.5783794843,
            "Longitude": -122.595521925
        }
    },
    {
        "State": "Illinois",
        "Military Bases Info": {
            "Military Branch": "Air Force",
            "Site Name": "Scott AFB",
            "Country": "United States",
            "Latitude": 38.5414818076,
            "Longitude": -89.8537036559
        }
    },
    {
        "State": "Oklahoma",
        "Military Bases Info": {
            "Military Branch": "Army Guard",
            "Site Name": "NG Camp Gruber",
            "Country": "United States",
            "Latitude": 35.6982004144,
            "Longitude": -95.1672665598
        }
    },
    {
        "State": "Nebraska",
        "Military Bases Info": {
            "Military Branch": "Army Guard",
            "Site Name": "NG Mead TS/FMS 06/Utes 02",
            "Country": "United States",
            "Latitude": 41.1935295586,
            "Longitude": -96.4384536797
        }
    },
    {
        "State": "Nebraska",
        "Military Bases Info": {
            "Military Branch": "Army Guard",
            "Site Name": "NG Greenlief TS/UTES 01",
            "Country": "United States",
            "Latitude": 40.5459251377,
            "Longitude": -98.2756208599
        }
    },
    {
        "State": "Arizona",
        "Military Bases Info": {
            "Military Branch": "Army Guard",
            "Site Name": "NG Silver Bell Army Heliport",
            "Country": "United States",
            "Latitude": 32.5228718308,
            "Longitude": -111.333461822
        }
    },
    {
        "State": "Louisiana",
        "Military Bases Info": {
            "Military Branch": "Army Guard",
            "Site Name": "NG Camp Villere",
            "Country": "United States",
            "Latitude": 30.3233531244,
            "Longitude": -89.8085256308
        }
    },
    {
        "State": "Pennsylvania",
        "Military Bases Info": {
            "Military Branch": "Army Guard",
            "Site Name": "NG New Castle Readiness Center/FMS 9",
            "Country": "United States",
            "Latitude": 40.9793982663,
            "Longitude": -80.3247870434
        }
    },
    {
        "State": "Texas",
        "Military Bases Info": {
            "Military Branch": "Army Guard",
            "Site Name": "NG Saginaw",
            "Country": "United States",
            "Latitude": 32.8550925586,
            "Longitude": -97.3503623315
        }
    },
    {
        "State": "Washington",
        "Military Bases Info": {
            "Military Branch": "Army Guard",
            "Site Name": "NG Bremerton",
            "Country": "United States",
            "Latitude": 47.552709639,
            "Longitude": -122.681322245
        }
    },
    {
        "State": "Nevada",
        "Military Bases Info": {
            "Military Branch": "Navy",
            "Site Name": "Target B-17",
            "Country": "United States",
            "Latitude": 39.2058446774,
            "Longitude": -118.232177679
        }
    },
    {
        "State": "California",
        "Military Bases Info": {
            "Military Branch": "Navy",
            "Site Name": "Camp Morena",
            "Country": "United States",
            "Latitude": 32.7116634719,
            "Longitude": -116.518554891
        }
    },
    {
        "State": "Maryland",
        "Military Bases Info": {
            "Military Branch": "Navy",
            "Site Name": "Upper Yard Annapolis",
            "Country": "United States",
            "Latitude": 38.9886655979,
            "Longitude": -76.4943484486
        }
    },
    {
        "State": "Texas",
        "Military Bases Info": {
            "Military Branch": "Navy",
            "Site Name": "Yankee Target Range",
            "Country": "United States",
            "Latitude": 28.2458871657,
            "Longitude": -98.724210101
        }
    },
    {
        "State": "California",
        "Military Bases Info": {
            "Military Branch": "Army",
            "Site Name": "Presidio of Monterey",
            "Country": "United States",
            "Latitude": 36.6032534708,
            "Longitude": -121.912105279
        }
    },
    {
        "State": "Virginia",
        "Military Bases Info": {
            "Military Branch": "Navy",
            "Site Name": "Fire Fighters School",
            "Country": "United States",
            "Latitude": 36.9215240082,
            "Longitude": -76.322723548
        }
    },
    {
        "State": "Tennessee",
        "Military Bases Info": {
            "Military Branch": "Air Force",
            "Site Name": "Arnold",
            "Country": "United States",
            "Latitude": 35.3646392145,
            "Longitude": -86.0796716743
        }
    },
    {
        "State": "Florida",
        "Military Bases Info": {
            "Military Branch": "Air Force",
            "Site Name": "Eglin AFB Site 2 Santa Rosa Island",
            "Country": "United States",
            "Latitude": 30.394460792,
            "Longitude": -86.7427418884
        }
    },
    {
        "State": "South Carolina",
        "Military Bases Info": {
            "Military Branch": "Air Force",
            "Site Name": "Poinsett Range",
            "Country": "United States",
            "Latitude": 33.7961254892,
            "Longitude": -80.4817960181
        }
    },
    {
        "State": "Missouri",
        "Military Bases Info": {
            "Military Branch": "Air Force",
            "Site Name": "Whiteman AFB",
            "Country": "United States",
            "Latitude": 38.7299115089,
            "Longitude": -93.5553845227
        }
    },
    {
        "State": "New York",
        "Military Bases Info": {
            "Military Branch": "Air Force Reserve",
            "Site Name": "Niagara Falls",
            "Country": "United States",
            "Latitude": 43.1132212142,
            "Longitude": -78.9500571676
        }
    },
    {
        "State": "Washington",
        "Military Bases Info": {
            "Military Branch": "Air Force",
            "Site Name": "Cusick Survival Training Site",
            "Country": "United States",
            "Latitude": 48.4515209628,
            "Longitude": -117.373850327
        }
    },
    {
        "State": "Wisconsin",
        "Military Bases Info": {
            "Military Branch": "Air Force Guard",
            "Site Name": "Truax ANGB",
            "Country": "United States",
            "Latitude": 43.1306561021,
            "Longitude": -89.3361064283
        }
    },
    {
        "State": "Texas",
        "Military Bases Info": {
            "Military Branch": "Air Force Guard",
            "Site Name": "Ellington Field",
            "Country": "United States",
            "Latitude": 29.6160801417,
            "Longitude": -95.1704814148
        }
    },
    {
        "State": "Nebraska",
        "Military Bases Info": {
            "Military Branch": "Air Force Guard",
            "Site Name": "Lincoln Map",
            "Country": "United States",
            "Latitude": 40.841020615,
            "Longitude": -96.7538721771
        }
    },
    {
        "State": "Texas",
        "Military Bases Info": {
            "Military Branch": "Air Force",
            "Site Name": "JBSA Sam Houston",
            "Country": "United States",
            "Latitude": 29.4595308379,
            "Longitude": -98.4407138221
        }
    },
    {
        "State": "Ohio",
        "Military Bases Info": {
            "Military Branch": "Army Guard",
            "Site Name": "NG McConnelsville Training Site",
            "Country": "United States",
            "Latitude": 39.6614390075,
            "Longitude": -81.8394982857
        }
    },
    {
        "State": "Minnesota",
        "Military Bases Info": {
            "Military Branch": "Army Guard",
            "Site Name": "NG St Cloud AASF",
            "Country": "United States",
            "Latitude": 45.5390766509,
            "Longitude": -94.0557892236
        }
    },
    {
        "State": "Virginia",
        "Military Bases Info": {
            "Military Branch": "Army Guard",
            "Site Name": "NG Camp Pendleton SMR",
            "Country": "United States",
            "Latitude": 36.8161399548,
            "Longitude": -75.9791524396
        }
    },
    {
        "State": "Tennessee",
        "Military Bases Info": {
            "Military Branch": "Army Guard",
            "Site Name": "NG Jackson Airport Armory",
            "Country": "United States",
            "Latitude": 35.5981462433,
            "Longitude": -88.9129589106
        }
    },
    {
        "State": "Texas",
        "Military Bases Info": {
            "Military Branch": "Navy",
            "Site Name": "ALF Cabaniss",
            "Country": "United States",
            "Latitude": 27.7013359207,
            "Longitude": -97.4363492634
        }
    },
    {
        "State": "California",
        "Military Bases Info": {
            "Military Branch": "Navy",
            "Site Name": "San Nicolas Island",
            "Country": "United States",
            "Latitude": 33.2479609439,
            "Longitude": -119.506113048
        }
    },
    {
        "State": "Florida",
        "Military Bases Info": {
            "Military Branch": "Navy",
            "Site Name": "NAS Whiting Field Milton FL",
            "Country": "United States",
            "Latitude": 30.7137475905,
            "Longitude": -87.0201884489
        }
    },
    {
        "State": "Tennessee",
        "Military Bases Info": {
            "Military Branch": "Army",
            "Site Name": "Fort Campbell TN",
            "Country": "United States",
            "Latitude": 36.596494345,
            "Longitude": -87.599046902
        }
    },
    {
        "State": "Virginia",
        "Military Bases Info": {
            "Military Branch": "Army",
            "Site Name": "Arlington National Cemetery",
            "Country": "United States",
            "Latitude": 38.8778215838,
            "Longitude": -77.0690379263
        }
    },
    {
        "State": "Wisconsin",
        "Military Bases Info": {
            "Military Branch": "Army Reserve",
            "Site Name": "Fort McCoy",
            "Country": "United States",
            "Latitude": 44.0335308735,
            "Longitude": -90.6765636531
        }
    },
    {
        "State": "District of Columbia",
        "Military Bases Info": {
            "Military Branch": "Army",
            "Site Name": "Fort Lesley J McNair",
            "Country": "United States",
            "Latitude": 38.8671698257,
            "Longitude": -77.016494005
        }
    },
    {
        "State": "Hawaii",
        "Military Bases Info": {
            "Military Branch": "Army",
            "Site Name": "Helemano Military Reservation",
            "Country": "United States",
            "Latitude": 21.5359637869,
            "Longitude": -158.019432628
        }
    },
    {
        "State": "Hawaii",
        "Military Bases Info": {
            "Military Branch": "Army",
            "Site Name": "USA Field Station Kunia",
            "Country": "United States",
            "Latitude": 21.4768147455,
            "Longitude": -158.052424245
        }
    },
    {
        "State": "California",
        "Military Bases Info": {
            "Military Branch": "Marine Corps",
            "Site Name": "Twentynine Palms",
            "Country": "United States",
            "Latitude": 34.461945779,
            "Longitude": -116.210925972
        }
    },
    {
        "State": "Virginia",
        "Military Bases Info": {
            "Military Branch": "Marine Corps",
            "Site Name": "MCB Quantico",
            "Country": "United States",
            "Latitude": 38.5520544383,
            "Longitude": -77.4571616476
        }
    },
    {
        "State": "Virginia",
        "Military Bases Info": {
            "Military Branch": "Navy",
            "Site Name": "St Juliens Creek East",
            "Country": "United States",
            "Latitude": 36.7879489259,
            "Longitude": -76.3101638082
        }
    },
    {
        "State": "Virginia",
        "Military Bases Info": {
            "Military Branch": "Navy",
            "Site Name": "Elizabeth Rvr Channel",
            "Country": "United States",
            "Latitude": 36.8663757991,
            "Longitude": -76.3318847593
        }
    },
    {
        "State": "District of Columbia",
        "Military Bases Info": {
            "Military Branch": "Navy",
            "Site Name": "Naval Support Activity Wash",
            "Country": "United States",
            "Latitude": 38.8740586335,
            "Longitude": -76.9950963249
        }
    },
    {
        "State": "Florida",
        "Military Bases Info": {
            "Military Branch": "Navy",
            "Site Name": "Naval Support Activity Panama City",
            "Country": "United States",
            "Latitude": 30.1726207717,
            "Longitude": -85.7522787123
        }
    },
    {
        "State": "Nevada",
        "Military Bases Info": {
            "Military Branch": "Air Force",
            "Site Name": "Nellis Annex",
            "Country": "United States",
            "Latitude": 36.2384449698,
            "Longitude": -115.135834801
        }
    },
    {
        "State": "Maryland",
        "Military Bases Info": {
            "Military Branch": "Air Force",
            "Site Name": "JB Andrews",
            "Country": "United States",
            "Latitude": 38.8051681105,
            "Longitude": -76.8744692983
        }
    },
    {
        "State": "Colorado",
        "Military Bases Info": {
            "Military Branch": "Air Force",
            "Site Name": "Schriever AFB",
            "Country": "United States",
            "Latitude": 38.8058114757,
            "Longitude": -104.519907537
        }
    },
    {
        "State": "South Carolina",
        "Military Bases Info": {
            "Military Branch": "Air Force",
            "Site Name": "Charleston Defense Fuel Support Point",
            "Country": "United States",
            "Latitude": 32.9127968927,
            "Longitude": -79.983267572
        }
    },
    {
        "State": "South Carolina",
        "Military Bases Info": {
            "Military Branch": "Air Force",
            "Site Name": "Joint Base Charleston Short Stay",
            "Country": "United States",
            "Latitude": 33.2559459604,
            "Longitude": -79.9889000764
        }
    },
    {
        "State": "Alabama",
        "Military Bases Info": {
            "Military Branch": "Air Force",
            "Site Name": "Maxwell AFB Gunter Annex",
            "Country": "United States",
            "Latitude": 32.4070003775,
            "Longitude": -86.2462388765
        }
    },
    {
        "State": "Michigan",
        "Military Bases Info": {
            "Military Branch": "Air Force Guard",
            "Site Name": "Alpena County Regional Airport",
            "Country": "United States",
            "Latitude": 45.0843936284,
            "Longitude": -83.5700561745
        }
    },
    {
        "State": "Kansas",
        "Military Bases Info": {
            "Military Branch": "Air Force Guard",
            "Site Name": "Forbes Field ANG",
            "Country": "United States",
            "Latitude": 38.9609025845,
            "Longitude": -95.681207501
        }
    },
    {
        "State": "Oregon",
        "Military Bases Info": {
            "Military Branch": "Air Force Guard",
            "Site Name": "Kingsley Field Cantonement Site 1",
            "Country": "United States",
            "Latitude": 42.1604107875,
            "Longitude": -121.744216355
        }
    },
    {
        "State": "Tennessee",
        "Military Bases Info": {
            "Military Branch": "Air Force Guard",
            "Site Name": "Nashville IAP",
            "Country": "United States",
            "Latitude": 36.1109974019,
            "Longitude": -86.6749742271
        }
    },
    {
        "State": "Texas",
        "Military Bases Info": {
            "Military Branch": "Army Guard",
            "Site Name": "NG Fort Worth - Shoreview",
            "Country": "United States",
            "Latitude": 32.778187703,
            "Longitude": -97.458544842
        }
    },
    {
        "State": "Indiana",
        "Military Bases Info": {
            "Military Branch": "Army Guard",
            "Site Name": "NG Muscatatuck Urban Training Center",
            "Country": "United States",
            "Latitude": 39.0513458097,
            "Longitude": -85.5247386919
        }
    },
    {
        "State": "Montana",
        "Military Bases Info": {
            "Military Branch": "Army Guard",
            "Site Name": "NG MTA Ft Wm Henry Harrison",
            "Country": "United States",
            "Latitude": 46.626145715,
            "Longitude": -112.146444058
        }
    },
    {
        "State": "Massachusetts",
        "Military Bases Info": {
            "Military Branch": "Army Guard",
            "Site Name": "NG Ayer",
            "Country": "United States",
            "Latitude": 42.5489411722,
            "Longitude": -71.584497782
        }
    },
    {
        "State": "Missouri",
        "Military Bases Info": {
            "Military Branch": "Army Guard",
            "Site Name": "NG Macon TS",
            "Country": "United States",
            "Latitude": 39.6732925118,
            "Longitude": -92.5020276292
        }
    },
    {
        "State": "Tennessee",
        "Military Bases Info": {
            "Military Branch": "Army Guard",
            "Site Name": "NG Johnson City Gray",
            "Country": "United States",
            "Latitude": 36.4213309591,
            "Longitude": -82.4887633022
        }
    },
    {
        "State": "Oklahoma",
        "Military Bases Info": {
            "Military Branch": "Army Guard",
            "Site Name": "NG Muskogee AFRC",
            "Country": "United States",
            "Latitude": 35.6603704603,
            "Longitude": -95.3735309528
        }
    },
    {
        "State": "Virginia",
        "Military Bases Info": {
            "Military Branch": "Army Guard",
            "Site Name": "NG Fort Pickett ARNG MTC",
            "Country": "United States",
            "Latitude": 37.0367527263,
            "Longitude": -77.9093172808
        }
    },
    {
        "State": "Florida",
        "Military Bases Info": {
            "Military Branch": "Navy",
            "Site Name": "NOLF Choctaw",
            "Country": "United States",
            "Latitude": 30.5064032466,
            "Longitude": -86.9567087641
        }
    },
    {
        "State": "Alabama",
        "Military Bases Info": {
            "Military Branch": "Navy",
            "Site Name": "NOLF Evergreen",
            "Country": "United States",
            "Latitude": 31.4156644398,
            "Longitude": -87.0439393588
        }
    },
    {
        "State": "California",
        "Military Bases Info": {
            "Military Branch": "Navy",
            "Site Name": "NAWS China Lake",
            "Country": "United States",
            "Latitude": 35.9342694303,
            "Longitude": -117.643911309
        }
    },
    {
        "State": "Texas",
        "Military Bases Info": {
            "Military Branch": "Army",
            "Site Name": "Fort Hood",
            "Country": "United States",
            "Latitude": 31.2156853581,
            "Longitude": -97.7370319242
        }
    },
    {
        "State": "Georgia",
        "Military Bases Info": {
            "Military Branch": "Air Force",
            "Site Name": "Air Force Plant 6",
            "Country": "United States",
            "Latitude": 33.922334237,
            "Longitude": -84.5270544482
        }
    },
    {
        "State": "Georgia",
        "Military Bases Info": {
            "Military Branch": "Navy",
            "Site Name": "Subase Kings Bay GA",
            "Country": "United States",
            "Latitude": 30.7934587256,
            "Longitude": -81.5333259382
        }
    },
    {
        "State": "Nevada",
        "Military Bases Info": {
            "Military Branch": "Navy",
            "Site Name": "NAS Fallon NV",
            "Country": "United States",
            "Latitude": 39.4222968339,
            "Longitude": -118.704557143
        }
    },
    {
        "State": "Hawaii",
        "Military Bases Info": {
            "Military Branch": "Army",
            "Site Name": "Kawaihae Mil Reserve",
            "Country": "United States",
            "Latitude": 20.0318843522,
            "Longitude": -155.829966763
        }
    },
    {
        "State": "Virginia",
        "Military Bases Info": {
            "Military Branch": "Army",
            "Site Name": "Fort Belvoir",
            "Country": "United States",
            "Latitude": 38.7084767137,
            "Longitude": -77.1565160328
        }
    },
    {
        "State": "Indiana",
        "Military Bases Info": {
            "Military Branch": "Navy",
            "Site Name": "Naval Support Activity Crane",
            "Country": "United States",
            "Latitude": 38.8411900749,
            "Longitude": -86.8124514998
        }
    },
    {
        "State": "Oklahoma",
        "Military Bases Info": {
            "Military Branch": "Air Force",
            "Site Name": "Tinker AFB",
            "Country": "United States",
            "Latitude": 35.4191853794,
            "Longitude": -97.3929293521
        }
    },
    {
        "State": "South Dakota",
        "Military Bases Info": {
            "Military Branch": "Air Force",
            "Site Name": "Ellsworth AFB Site 2",
            "Country": "United States",
            "Latitude": 44.1331953443,
            "Longitude": -103.090999951
        }
    },
    {
        "State": "Florida",
        "Military Bases Info": {
            "Military Branch": "Air Force Reserve",
            "Site Name": "Homestead ARB",
            "Country": "United States",
            "Latitude": 25.4944981242,
            "Longitude": -80.3914944068
        }
    },
    {
        "State": "Texas",
        "Military Bases Info": {
            "Military Branch": "Air Force",
            "Site Name": "Lackland Training Annex",
            "Country": "United States",
            "Latitude": 29.3687556968,
            "Longitude": -98.6650123488
        }
    },
    {
        "State": "Alaska",
        "Military Bases Info": {
            "Military Branch": "Air Force",
            "Site Name": "Yukon Weapons Range",
            "Country": "United States",
            "Latitude": 64.768242806,
            "Longitude": -146.889492296
        }
    },
    {
        "State": "Florida",
        "Military Bases Info": {
            "Military Branch": "Air Force Guard",
            "Site Name": "Jacksonville IAP",
            "Country": "United States",
            "Latitude": 30.4863923135,
            "Longitude": -81.7054402836
        }
    },
    {
        "State": "Ohio",
        "Military Bases Info": {
            "Military Branch": "Air Force Guard",
            "Site Name": "Site 1 Cantonement Area",
            "Country": "United States",
            "Latitude": 40.8116650292,
            "Longitude": -82.5179560357
        }
    },
    {
        "State": "Maryland",
        "Military Bases Info": {
            "Military Branch": "Air Force Guard",
            "Site Name": "Martin State Airport",
            "Country": "United States",
            "Latitude": 39.3317978625,
            "Longitude": -76.4150756624
        }
    },
    {
        "State": "Utah",
        "Military Bases Info": {
            "Military Branch": "Air Force Guard",
            "Site Name": "Salt Lake City IAP",
            "Country": "United States",
            "Latitude": 40.7896351662,
            "Longitude": -111.956659778
        }
    },
    {
        "State": "Louisiana",
        "Military Bases Info": {
            "Military Branch": "Army Guard",
            "Site Name": "NG Carville Gillis Long Center",
            "Country": "United States",
            "Latitude": 30.2011201324,
            "Longitude": -91.1289504931
        }
    },
    {
        "State": "Missouri",
        "Military Bases Info": {
            "Military Branch": "Army Guard",
            "Site Name": "NG Springfield AVCRAD (New)",
            "Country": "United States",
            "Latitude": 37.2532754828,
            "Longitude": -93.3909578934
        }
    },
    {
        "State": "Alaska",
        "Military Bases Info": {
            "Military Branch": "Army Guard",
            "Site Name": "NG Alcantra Armory Complex",
            "Country": "United States",
            "Latitude": 61.6030503345,
            "Longitude": -149.37484979
        }
    },
    {
        "State": "Oregon",
        "Military Bases Info": {
            "Military Branch": "Army Guard",
            "Site Name": "NG Camp Adair Corvallis",
            "Country": "United States",
            "Latitude": 44.714336076,
            "Longitude": -123.270695898
        }
    },
    {
        "State": "Hawaii",
        "Military Bases Info": {
            "Military Branch": "Army Guard",
            "Site Name": "NG Kalaeloa",
            "Country": "United States",
            "Latitude": 21.3189917251,
            "Longitude": -158.062484829
        }
    },
    {
        "State": "Hawaii",
        "Military Bases Info": {
            "Military Branch": "Navy",
            "Site Name": "Aiea",
            "Country": "United States",
            "Latitude": 21.3735152684,
            "Longitude": -157.937987691
        }
    },
    {
        "State": "Hawaii",
        "Military Bases Info": {
            "Military Branch": "Navy",
            "Site Name": "Ewa",
            "Country": "United States",
            "Latitude": 21.3388777428,
            "Longitude": -157.995139279
        }
    },
    {
        "State": "California",
        "Military Bases Info": {
            "Military Branch": "Navy",
            "Site Name": "Sewage Evaporation Pond",
            "Country": "United States",
            "Latitude": 36.243764679,
            "Longitude": -119.883529044
        }
    },
    {
        "State": "Georgia",
        "Military Bases Info": {
            "Military Branch": "Air Force",
            "Site Name": "Moody AFB",
            "Country": "United States",
            "Latitude": 30.9725276772,
            "Longitude": -83.1646930406
        }
    },
    {
        "State": "Alabama",
        "Military Bases Info": {
            "Military Branch": "Army",
            "Site Name": "Tac X Stagefield AL",
            "Country": "United States",
            "Latitude": 31.122537386,
            "Longitude": -85.9790965172
        }
    },
    {
        "State": "Washington",
        "Military Bases Info": {
            "Military Branch": "Army",
            "Site Name": "Fort Lewis",
            "Country": "United States",
            "Latitude": 47.0544740533,
            "Longitude": -122.552700903
        }
    },
    {
        "State": "Georgia",
        "Military Bases Info": {
            "Military Branch": "Army",
            "Site Name": "Hunter Army Airfield",
            "Country": "United States",
            "Latitude": 32.0096565094,
            "Longitude": -81.1535601851
        }
    },
    {
        "State": "Washington",
        "Military Bases Info": {
            "Military Branch": "Navy",
            "Site Name": "Marysville WA",
            "Country": "United States",
            "Latitude": 48.1237034582,
            "Longitude": -122.171056043
        }
    },
    {
        "State": "Texas",
        "Military Bases Info": {
            "Military Branch": "Air Force",
            "Site Name": "Laughlin AFB Aux 1",
            "Country": "United States",
            "Latitude": 29.1183865271,
            "Longitude": -100.47229345
        }
    },
    {
        "State": "South Carolina",
        "Military Bases Info": {
            "Military Branch": "Air Force",
            "Site Name": "Joint Base Charleston Naval Weapons Station",
            "Country": "United States",
            "Latitude": 32.9629279333,
            "Longitude": -79.9635724771
        }
    },
    {
        "State": "Arizona",
        "Military Bases Info": {
            "Military Branch": "Air Force",
            "Site Name": "Luke Waste Annex",
            "Country": "United States",
            "Latitude": 33.538406301,
            "Longitude": -112.321762273
        }
    },
    {
        "State": "Montana",
        "Military Bases Info": {
            "Military Branch": "Air Force Guard",
            "Site Name": "Great Falls IAP",
            "Country": "United States",
            "Latitude": 47.4765456036,
            "Longitude": -111.364979591
        }
    },
    {
        "State": "North Dakota",
        "Military Bases Info": {
            "Military Branch": "Air Force Guard",
            "Site Name": "Hector IAP",
            "Country": "United States",
            "Latitude": 46.913722408,
            "Longitude": -96.8044644308
        }
    },
    {
        "State": "New York",
        "Military Bases Info": {
            "Military Branch": "Air Force Guard",
            "Site Name": "Stewart IAP",
            "Country": "United States",
            "Latitude": 41.501405282,
            "Longitude": -74.0843453548
        }
    },
    {
        "State": "Vermont",
        "Military Bases Info": {
            "Military Branch": "Air Force Guard",
            "Site Name": "Burlington IAP",
            "Country": "United States",
            "Latitude": 44.4744278549,
            "Longitude": -73.1478968168
        }
    },
    {
        "State": "Texas",
        "Military Bases Info": {
            "Military Branch": "Air Force",
            "Site Name": "Canyon Lake Recreation Annex",
            "Country": "United States",
            "Latitude": 29.8846193966,
            "Longitude": -98.2193812601
        }
    },
    {
        "State": "Iowa",
        "Military Bases Info": {
            "Military Branch": "Army Guard",
            "Site Name": "NG Camp Dodge Johnston TS",
            "Country": "United States",
            "Latitude": 41.81021516,
            "Longitude": -93.7813025881
        }
    },
    {
        "State": "Pennsylvania",
        "Military Bases Info": {
            "Military Branch": "Army Guard",
            "Site Name": "NG Fort Indiantown Gap",
            "Country": "United States",
            "Latitude": 40.4359467182,
            "Longitude": -76.6296904585
        }
    },
    {
        "State": "Texas",
        "Military Bases Info": {
            "Military Branch": "Army Guard",
            "Site Name": "NG Fort Wolters",
            "Country": "United States",
            "Latitude": 32.8648656985,
            "Longitude": -98.0295707976
        }
    },
    {
        "State": "Louisiana",
        "Military Bases Info": {
            "Military Branch": "Army Guard",
            "Site Name": "NG Beauregard Training Range",
            "Country": "United States",
            "Latitude": 31.4394196846,
            "Longitude": -92.2955559116
        }
    },
    {
        "State": "California",
        "Military Bases Info": {
            "Military Branch": "Army Guard",
            "Site Name": "NG ITC Camp San Luis Obisbo",
            "Country": "United States",
            "Latitude": 35.3391521049,
            "Longitude": -120.703075007
        }
    },
    {
        "State": "Vermont",
        "Military Bases Info": {
            "Military Branch": "Army Guard",
            "Site Name": "NG TS Ethan Allen Range",
            "Country": "United States",
            "Latitude": 44.4717265822,
            "Longitude": -72.896538843
        }
    },
    {
        "State": "Mississippi",
        "Military Bases Info": {
            "Military Branch": "Army Guard",
            "Site Name": "NG Gulfport AVCRAD",
            "Country": "United States",
            "Latitude": 30.4161868882,
            "Longitude": -89.062874432
        }
    },
    {
        "State": "Texas",
        "Military Bases Info": {
            "Military Branch": "Army Guard",
            "Site Name": "NG Camp Swift",
            "Country": "United States",
            "Latitude": 30.2616699455,
            "Longitude": -97.2945537016
        }
    },
    {
        "State": "District of Columbia",
        "Military Bases Info": {
            "Military Branch": "Navy",
            "Site Name": "JBAB Anacostia Bolling",
            "Country": "United States",
            "Latitude": 38.8448751542,
            "Longitude": -77.0147335466
        }
    },
    {
        "State": "Hawaii",
        "Military Bases Info": {
            "Military Branch": "Navy",
            "Site Name": "Honolulu",
            "Country": "United States",
            "Latitude": 21.3462993357,
            "Longitude": -157.922047733
        }
    },
    {
        "State": "Louisiana",
        "Military Bases Info": {
            "Military Branch": "Navy",
            "Site Name": "NAS JRB New Orleans LA",
            "Country": "United States",
            "Latitude": 29.8313631946,
            "Longitude": -90.0208667897
        }
    },
    {
        "State": "Florida",
        "Military Bases Info": {
            "Military Branch": "Navy",
            "Site Name": "NOLF Spencer",
            "Country": "United States",
            "Latitude": 30.6253166375,
            "Longitude": -87.1398275231
        }
    },
    {
        "State": "Florida",
        "Military Bases Info": {
            "Military Branch": "Navy",
            "Site Name": "NOTU Cape Canaveral",
            "Country": "United States",
            "Latitude": 28.4282639805,
            "Longitude": -80.588426762
        }
    },
    {
        "State": "Oregon",
        "Military Bases Info": {
            "Military Branch": "Navy",
            "Site Name": "NAVWPNSYSTRAFAC Boardman",
            "Country": "United States",
            "Latitude": 45.72074181,
            "Longitude": -119.687435193
        }
    },
    {
        "State": "Washington",
        "Military Bases Info": {
            "Military Branch": "Navy",
            "Site Name": "NAVSTA Everett WA",
            "Country": "United States",
            "Latitude": 47.9883156828,
            "Longitude": -122.223175004
        }
    },
    {
        "State": "Washington",
        "Military Bases Info": {
            "Military Branch": "Navy",
            "Site Name": "NAS Whidbey Island WA",
            "Country": "United States",
            "Latitude": 48.3386378202,
            "Longitude": -122.661500903
        }
    },
    {
        "State": "Alabama",
        "Military Bases Info": {
            "Military Branch": "Army",
            "Site Name": "Anniston Army Depot",
            "Country": "United States",
            "Latitude": 33.6531336371,
            "Longitude": -85.9692368218
        }
    },
    {
        "State": "Colorado",
        "Military Bases Info": {
            "Military Branch": "Army",
            "Site Name": "Fort Carson",
            "Country": "United States",
            "Latitude": 38.5587412041,
            "Longitude": -104.826768506
        }
    },
    {
        "State": "Virginia",
        "Military Bases Info": {
            "Military Branch": "Army",
            "Site Name": "Radford AAP",
            "Country": "United States",
            "Latitude": 37.1870774617,
            "Longitude": -80.5424873564
        }
    },
    {
        "State": "California",
        "Military Bases Info": {
            "Military Branch": "Marine Corps",
            "Site Name": "Choc Mt Air Gnry Rng",
            "Country": "United States",
            "Latitude": 33.3119495462,
            "Longitude": -115.309239233
        }
    },
    {
        "State": "Hawaii",
        "Military Bases Info": {
            "Military Branch": "Marine Corps",
            "Site Name": "Pearl City Annex",
            "Country": "United States",
            "Latitude": 21.3835443747,
            "Longitude": -157.971379541
        }
    },
    {
        "State": "Virginia",
        "Military Bases Info": {
            "Military Branch": "Navy",
            "Site Name": "Yorktown Fuel Depot",
            "Country": "United States",
            "Latitude": 37.2159079687,
            "Longitude": -76.4860419602
        }
    },
    {
        "State": "New Jersey",
        "Military Bases Info": {
            "Military Branch": "Navy",
            "Site Name": "Waterfront",
            "Country": "United States",
            "Latitude": 40.422044168,
            "Longitude": -74.0704353876
        }
    },
    {
        "State": "North Carolina",
        "Military Bases Info": {
            "Military Branch": "Air Force",
            "Site Name": "Seymour Johnson AFB",
            "Country": "United States",
            "Latitude": 35.3479024962,
            "Longitude": -77.962577717
        }
    },
    {
        "State": "Massachusetts",
        "Military Bases Info": {
            "Military Branch": "Air Force Reserve",
            "Site Name": "Westover ARB",
            "Country": "United States",
            "Latitude": 42.1990993962,
            "Longitude": -72.5364984149
        }
    },
    {
        "State": "Alaska",
        "Military Bases Info": {
            "Military Branch": "Air Force",
            "Site Name": "Eareckson AS",
            "Country": "United States",
            "Latitude": 52.721036906,
            "Longitude": 174.107140074
        }
    },
    {
        "State": "Wyoming",
        "Military Bases Info": {
            "Military Branch": "Air Force Guard",
            "Site Name": "Cheyenne Regional Airport",
            "Country": "United States",
            "Latitude": 41.1620252547,
            "Longitude": -104.821289643
        }
    },
    {
        "State": "Arkansas",
        "Military Bases Info": {
            "Military Branch": "Air Force Guard",
            "Site Name": "Fort Smith Map",
            "Country": "United States",
            "Latitude": 35.3414611154,
            "Longitude": -94.3704265035
        }
    },
    {
        "State": "Tennessee",
        "Military Bases Info": {
            "Military Branch": "Air Force Guard",
            "Site Name": "Memphis IAP",
            "Country": "United States",
            "Latitude": 35.025497959,
            "Longitude": -89.966549951
        }
    },
    {
        "State": "Ohio",
        "Military Bases Info": {
            "Military Branch": "Air Force Guard",
            "Site Name": "Springfield Beckley",
            "Country": "United States",
            "Latitude": 39.8490796654,
            "Longitude": -83.8354791953
        }
    },
    {
        "State": "Alabama",
        "Military Bases Info": {
            "Military Branch": "Air Force Guard",
            "Site Name": "Birmingham Airport",
            "Country": "United States",
            "Latitude": 33.5710203144,
            "Longitude": -86.7541411026
        }
    },
    {
        "State": "Arizona",
        "Military Bases Info": {
            "Military Branch": "Army Guard",
            "Site Name": "NG Camp Navajo",
            "Country": "United States",
            "Latitude": 35.1948003007,
            "Longitude": -111.850594633
        }
    },
    {
        "State": "Florida",
        "Military Bases Info": {
            "Military Branch": "Army Guard",
            "Site Name": "NG HMO3 (Snake Creek TS)",
            "Country": "United States",
            "Latitude": 25.9624299881,
            "Longitude": -80.3047964814
        }
    },
    {
        "State": "Michigan",
        "Military Bases Info": {
            "Military Branch": "Army Guard",
            "Site Name": "NG CTC Fort Custer Trng Center",
            "Country": "United States",
            "Latitude": 42.2994261787,
            "Longitude": -85.3177166165
        }
    },
    {
        "State": "South Dakota",
        "Military Bases Info": {
            "Military Branch": "Army Guard",
            "Site Name": "NG West Camp",
            "Country": "United States",
            "Latitude": 44.0731899378,
            "Longitude": -103.30683687
        }
    },
    {
        "State": "Texas",
        "Military Bases Info": {
            "Military Branch": "Air Force",
            "Site Name": "Brooks AFB",
            "Country": "United States",
            "Latitude": 29.3427718639,
            "Longitude": -98.4396992143
        }
    },
    {
        "State": "Delaware",
        "Military Bases Info": {
            "Military Branch": "Air Force",
            "Site Name": "Dover AFB",
            "Country": "United States",
            "Latitude": 39.1265401339,
            "Longitude": -75.465256235
        }
    },
    {
        "State": "Virginia",
        "Military Bases Info": {
            "Military Branch": "Army",
            "Site Name": "Fort A P Hill",
            "Country": "United States",
            "Latitude": 38.1180327475,
            "Longitude": -77.2759052325
        }
    },
    {
        "State": "Pennsylvania",
        "Military Bases Info": {
            "Military Branch": "Army",
            "Site Name": "Tobyhanna Army Depot",
            "Country": "United States",
            "Latitude": 41.1975381899,
            "Longitude": -75.4291099943
        }
    },
    {
        "State": "Arizona",
        "Military Bases Info": {
            "Military Branch": "Marine Corps",
            "Site Name": "MCAS Yuma",
            "Country": "United States",
            "Latitude": 32.6453966733,
            "Longitude": -114.602240833
        }
    },
    {
        "State": "Virginia",
        "Military Bases Info": {
            "Military Branch": "Navy",
            "Site Name": "NNSY St Helena",
            "Country": "United States",
            "Latitude": 36.8255463263,
            "Longitude": -76.289264919
        }
    },
    {
        "State": "Virginia",
        "Military Bases Info": {
            "Military Branch": "Navy",
            "Site Name": "Cheatham Annex",
            "Country": "United States",
            "Latitude": 37.2849658658,
            "Longitude": -76.6194826812
        }
    },
    {
        "State": "Virginia",
        "Military Bases Info": {
            "Military Branch": "Navy",
            "Site Name": "JEBLCFS Wallops Island VA",
            "Country": "United States",
            "Latitude": 37.8861451185,
            "Longitude": -75.4686379534
        }
    },
    {
        "State": "Illinois",
        "Military Bases Info": {
            "Military Branch": "Navy",
            "Site Name": "GL Camp JPJ",
            "Country": "United States",
            "Latitude": 42.3003113359,
            "Longitude": -87.8539702937
        }
    },
    {
        "State": "Florida",
        "Military Bases Info": {
            "Military Branch": "Navy",
            "Site Name": "NAS Pensacola FL",
            "Country": "United States",
            "Latitude": 30.3527067706,
            "Longitude": -87.3063356676
        }
    },
    {
        "State": "Florida",
        "Military Bases Info": {
            "Military Branch": "Navy",
            "Site Name": "Corry Station",
            "Country": "United States",
            "Latitude": 30.4028604162,
            "Longitude": -87.2900851792
        }
    },
    {
        "State": "Alaska",
        "Military Bases Info": {
            "Military Branch": "Air Force",
            "Site Name": "Clear Air Force Station",
            "Country": "United States",
            "Latitude": 64.2881605755,
            "Longitude": -149.190714695
        }
    },
    {
        "State": "South Dakota",
        "Military Bases Info": {
            "Military Branch": "Air Force Guard",
            "Site Name": "Joe Foss Field",
            "Country": "United States",
            "Latitude": 43.5732338069,
            "Longitude": -96.7415313205
        }
    },
    {
        "State": "Iowa",
        "Military Bases Info": {
            "Military Branch": "Air Force Guard",
            "Site Name": "Des Moines IAP",
            "Country": "United States",
            "Latitude": 41.5443605816,
            "Longitude": -93.6660689484
        }
    },
    {
        "State": "West Virginia",
        "Military Bases Info": {
            "Military Branch": "Air Force Guard",
            "Site Name": "EWVRA Shepherd Field",
            "Country": "United States",
            "Latitude": 39.406011562,
            "Longitude": -77.9845939323
        }
    },
    {
        "State": "Connecticut",
        "Military Bases Info": {
            "Military Branch": "Army Guard",
            "Site Name": "NG Camp Hartell",
            "Country": "United States",
            "Latitude": 41.9420819916,
            "Longitude": -72.665875741
        }
    },
    {
        "State": "Texas",
        "Military Bases Info": {
            "Military Branch": "Army Guard",
            "Site Name": "NG Martindale - AASF",
            "Country": "United States",
            "Latitude": 29.4318157845,
            "Longitude": -98.3795077904
        }
    },
    {
        "State": "Illinois",
        "Military Bases Info": {
            "Military Branch": "Army Guard",
            "Site Name": "NG Marseilles (MTA Tng Area)",
            "Country": "United States",
            "Latitude": 41.286945521,
            "Longitude": -88.6795863034
        }
    },
    {
        "State": "Maine",
        "Military Bases Info": {
            "Military Branch": "Army Guard",
            "Site Name": "NG Hollis Plains Training Site",
            "Country": "United States",
            "Latitude": 43.6687895015,
            "Longitude": -70.6637499429
        }
    },
    {
        "State": "Oklahoma",
        "Military Bases Info": {
            "Military Branch": "Army Guard",
            "Site Name": "NG Thunderbird Youth Academy",
            "Country": "United States",
            "Latitude": 36.2956939177,
            "Longitude": -95.2921270779
        }
    },
    {
        "State": "Alabama",
        "Military Bases Info": {
            "Military Branch": "Army Guard",
            "Site Name": "NG Fort McClellan ARNG Tng Center",
            "Country": "United States",
            "Latitude": 33.7333873334,
            "Longitude": -85.7878345164
        }
    },
    {
        "State": "Mississippi",
        "Military Bases Info": {
            "Military Branch": "Army Guard",
            "Site Name": "NG CTA Camp Mccain",
            "Country": "United States",
            "Latitude": 33.7108821376,
            "Longitude": -89.6859335176
        }
    },
    {
        "State": "New York",
        "Military Bases Info": {
            "Military Branch": "Army Guard",
            "Site Name": "NG Camp Smith Tng Site",
            "Country": "United States",
            "Latitude": 41.3118240947,
            "Longitude": -73.9509046086
        }
    },
    {
        "State": "California",
        "Military Bases Info": {
            "Military Branch": "Navy",
            "Site Name": "NAVBASE Point Loma",
            "Country": "United States",
            "Latitude": 32.6962020716,
            "Longitude": -117.245822433
        }
    },
    {
        "State": "Florida",
        "Military Bases Info": {
            "Military Branch": "Navy",
            "Site Name": "Dania Beach (Lauderdale)",
            "Country": "United States",
            "Latitude": 26.0918029314,
            "Longitude": -80.1100114622
        }
    },
    {
        "State": "California",
        "Military Bases Info": {
            "Military Branch": "Army Reserve",
            "Site Name": "Parks Reserve Forces Tng Area",
            "Country": "United States",
            "Latitude": 37.7301830972,
            "Longitude": -121.896604083
        }
    },
    {
        "State": "Alabama",
        "Military Bases Info": {
            "Military Branch": "Army",
            "Site Name": "Highbluff Stagefield AL",
            "Country": "United States",
            "Latitude": 31.1507181645,
            "Longitude": -85.7365895283
        }
    },
    {
        "State": "Hawaii",
        "Military Bases Info": {
            "Military Branch": "Army",
            "Site Name": "Kahuku Tng Area",
            "Country": "United States",
            "Latitude": 21.6554725925,
            "Longitude": -157.991699974
        }
    },
    {
        "State": "Hawaii",
        "Military Bases Info": {
            "Military Branch": "Army",
            "Site Name": "Kilauea Mil Reserve",
            "Country": "United States",
            "Latitude": 19.4339227624,
            "Longitude": -155.274146853
        }
    },
    {
        "State": "Wisconsin",
        "Military Bases Info": {
            "Military Branch": "Army Reserve",
            "Site Name": "W Silver Spring Complex",
            "Country": "United States",
            "Latitude": 43.122804331,
            "Longitude": -87.9772820103
        }
    },
    {
        "State": "Pennsylvania",
        "Military Bases Info": {
            "Military Branch": "Army",
            "Site Name": "Defense Distrib Depot Susq",
            "Country": "United States",
            "Latitude": 40.2081935416,
            "Longitude": -76.8392842405
        }
    },
    {
        "State": "Maryland",
        "Military Bases Info": {
            "Military Branch": "Army",
            "Site Name": "Fort Detrick",
            "Country": "United States",
            "Latitude": 39.4393426467,
            "Longitude": -77.4329802888
        }
    },
    {
        "State": "Massachusetts",
        "Military Bases Info": {
            "Military Branch": "Army Reserve",
            "Site Name": "Devens Reserve Forces Tng Area",
            "Country": "United States",
            "Latitude": 42.4983892077,
            "Longitude": -71.6564168902
        }
    },
    {
        "State": "California",
        "Military Bases Info": {
            "Military Branch": "Marine Corps",
            "Site Name": "MCAS Miramar",
            "Country": "United States",
            "Latitude": 32.8768862606,
            "Longitude": -117.085904098
        }
    },
    {
        "State": "Rhode Island",
        "Military Bases Info": {
            "Military Branch": "Navy",
            "Site Name": "Gould Island RI",
            "Country": "United States",
            "Latitude": 41.537007483,
            "Longitude": -71.3449081892
        }
    },
    {
        "State": "Florida",
        "Military Bases Info": {
            "Military Branch": "Navy",
            "Site Name": "Saufley Field",
            "Country": "United States",
            "Latitude": 30.4703563325,
            "Longitude": -87.341464807
        }
    },
    {
        "State": "Texas",
        "Military Bases Info": {
            "Military Branch": "Air Force",
            "Site Name": "Dyess AFB",
            "Country": "United States",
            "Latitude": 32.4228638826,
            "Longitude": -99.8391523672
        }
    },
    {
        "State": "Oklahoma",
        "Military Bases Info": {
            "Military Branch": "Air Force",
            "Site Name": "Vance AFB",
            "Country": "United States",
            "Latitude": 36.337985538,
            "Longitude": -97.9145208117
        }
    },
    {
        "State": "Iowa",
        "Military Bases Info": {
            "Military Branch": "Air Force Guard",
            "Site Name": "Sioux Gateway Airport (ANG)",
            "Country": "United States",
            "Latitude": 42.3949424324,
            "Longitude": -96.3728939608
        }
    },
    {
        "State": "Illinois",
        "Military Bases Info": {
            "Military Branch": "Air Force Guard",
            "Site Name": "General Wayne A Downing Peoria IAP",
            "Country": "United States",
            "Latitude": 40.6623266748,
            "Longitude": -89.7047451161
        }
    },
    {
        "State": "Rhode Island",
        "Military Bases Info": {
            "Military Branch": "Army Guard",
            "Site Name": "NG Camp Fogarty Tng Site",
            "Country": "United States",
            "Latitude": 41.6154323015,
            "Longitude": -71.4990309697
        }
    },
    {
        "State": "Texas",
        "Military Bases Info": {
            "Military Branch": "Army Guard",
            "Site Name": "NG Bergstrom - (Abia)",
            "Country": "United States",
            "Latitude": 30.1763045639,
            "Longitude": -97.6720949612
        }
    },
    {
        "State": "Oregon",
        "Military Bases Info": {
            "Military Branch": "Army Guard",
            "Site Name": "NG Biak Training Center COUTES",
            "Country": "United States",
            "Latitude": 44.2000240894,
            "Longitude": -121.116641902
        }
    },
    {
        "State": "Tennessee",
        "Military Bases Info": {
            "Military Branch": "Army Guard",
            "Site Name": "NG Nashville",
            "Country": "United States",
            "Latitude": 36.0990427201,
            "Longitude": -86.7588114945
        }
    },
    {
        "State": "Arizona",
        "Military Bases Info": {
            "Military Branch": "Army Guard",
            "Site Name": "NG Papago Military Reservation",
            "Country": "United States",
            "Latitude": 33.4680085999,
            "Longitude": -111.961734255
        }
    },
    {
        "State": "Indiana",
        "Military Bases Info": {
            "Military Branch": "Army Guard",
            "Site Name": "NG Indianapolis 38 ID",
            "Country": "United States",
            "Latitude": 39.7443784632,
            "Longitude": -86.2281648634
        }
    },
    {
        "State": "West Virginia",
        "Military Bases Info": {
            "Military Branch": "Army Guard",
            "Site Name": "NG CTC Camp Dawson-Kingwood",
            "Country": "United States",
            "Latitude": 39.4053782409,
            "Longitude": -79.6650809272
        }
    },
    {
        "State": "Alabama",
        "Military Bases Info": {
            "Military Branch": "Navy",
            "Site Name": "NOLF Brewton",
            "Country": "United States",
            "Latitude": 31.0485248017,
            "Longitude": -87.0645146284
        }
    },
    {
        "State": "California",
        "Military Bases Info": {
            "Military Branch": "Navy",
            "Site Name": "Amphib Base Coronado West",
            "Country": "United States",
            "Latitude": 32.6713189664,
            "Longitude": -117.167654101
        }
    },
    {
        "State": "California",
        "Military Bases Info": {
            "Military Branch": "Navy",
            "Site Name": "Balboa Hospital",
            "Country": "United States",
            "Latitude": 32.7262714976,
            "Longitude": -117.145036279
        }
    },
    {
        "State": "California",
        "Military Bases Info": {
            "Military Branch": "Navy",
            "Site Name": "NAVWPNSTA Seal Beach",
            "Country": "United States",
            "Latitude": 33.7504659919,
            "Longitude": -118.064188826
        }
    },
    {
        "State": "California",
        "Military Bases Info": {
            "Military Branch": "Navy",
            "Site Name": "Norco",
            "Country": "United States",
            "Latitude": 33.9237676683,
            "Longitude": -117.569462918
        }
    },
    {
        "State": "California",
        "Military Bases Info": {
            "Military Branch": "Navy",
            "Site Name": "Randsburg Wash Area",
            "Country": "United States",
            "Latitude": 35.5147864004,
            "Longitude": -117.141406945
        }
    },
    {
        "State": "New York",
        "Military Bases Info": {
            "Military Branch": "Air Force",
            "Site Name": "Verona Defense Fuel Support Point",
            "Country": "United States",
            "Latitude": 43.1269235478,
            "Longitude": -75.5912449791
        }
    },
    {
        "State": "Wyoming",
        "Military Bases Info": {
            "Military Branch": "Air Force",
            "Site Name": "F E Warren AFB",
            "Country": "United States",
            "Latitude": 41.1707420451,
            "Longitude": -104.860338183
        }
    },
    {
        "State": "Alaska",
        "Military Bases Info": {
            "Military Branch": "Navy",
            "Site Name": "NARL Barrow Camp Tr1",
            "Country": "United States",
            "Latitude": 71.3217290437,
            "Longitude": -156.647955307
        }
    },
    {
        "State": "Iowa",
        "Military Bases Info": {
            "Military Branch": "Air Force Guard",
            "Site Name": "Sioux Gateway Airport (ANG)",
            "Country": "United States",
            "Latitude": 42.3887282099,
            "Longitude": -96.3753394484
        }
    },
    {
        "State": "Washington",
        "Military Bases Info": {
            "Military Branch": "Army",
            "Site Name": "Yakima Training Center",
            "Country": "United States",
            "Latitude": 46.744530905,
            "Longitude": -120.165725249
        }
    },
    {
        "State": "Alabama",
        "Military Bases Info": {
            "Military Branch": "Army",
            "Site Name": "Shell Basefield AL",
            "Country": "United States",
            "Latitude": 31.3626015042,
            "Longitude": -85.8489813304
        }
    },
    {
        "State": "Maryland",
        "Military Bases Info": {
            "Military Branch": "Army",
            "Site Name": "Fort George G Meade",
            "Country": "United States",
            "Latitude": 39.1046170939,
            "Longitude": -76.7454436487
        }
    },
    {
        "State": "Pennsylvania",
        "Military Bases Info": {
            "Military Branch": "Army",
            "Site Name": "Scranton AAP",
            "Country": "United States",
            "Latitude": 41.404179439,
            "Longitude": -75.6659088025
        }
    },
    {
        "State": "New York",
        "Military Bases Info": {
            "Military Branch": "Army",
            "Site Name": "Watervliet Arsenal",
            "Country": "United States",
            "Latitude": 42.7198249748,
            "Longitude": -73.7081190476
        }
    },
    {
        "State": "Georgia",
        "Military Bases Info": {
            "Military Branch": "Marine Corps",
            "Site Name": "MCLB Albany",
            "Country": "United States",
            "Latitude": 31.5508944243,
            "Longitude": -84.0558826773
        }
    },
    {
        "State": "North Carolina",
        "Military Bases Info": {
            "Military Branch": "Marine Corps",
            "Site Name": "MCAS Cherry Point",
            "Country": "United States",
            "Latitude": 34.9120752465,
            "Longitude": -76.8854246963
        }
    },
    {
        "State": "California",
        "Military Bases Info": {
            "Military Branch": "Marine Corps",
            "Site Name": "Former NTC",
            "Country": "United States",
            "Latitude": 32.7293500339,
            "Longitude": -117.220992794
        }
    },
    {
        "State": "New York",
        "Military Bases Info": {
            "Military Branch": "Navy",
            "Site Name": "NSA Saratoga Springs NY",
            "Country": "United States",
            "Latitude": 43.0790804004,
            "Longitude": -73.8207400706
        }
    },
    {
        "State": "Virginia",
        "Military Bases Info": {
            "Military Branch": "Washington Headquarters Services",
            "Site Name": "Pentagon Building Site",
            "Country": "United States",
            "Latitude": 38.8719172793,
            "Longitude": -77.0547227251
        }
    },
    {
        "State": "Alaska",
        "Military Bases Info": {
            "Military Branch": "Air Force",
            "Site Name": "Elmendorf AFB",
            "Country": "United States",
            "Latitude": 61.2697994083,
            "Longitude": -149.811188858
        }
    },
    {
        "State": "California",
        "Military Bases Info": {
            "Military Branch": "Air Force Guard",
            "Site Name": "Fresno Yosemite International ANG",
            "Country": "United States",
            "Latitude": 36.766535122,
            "Longitude": -119.71000318
        }
    },
    {
        "State": "Missouri",
        "Military Bases Info": {
            "Military Branch": "Air Force",
            "Site Name": "St Louis Air Force Station",
            "Country": "United States",
            "Latitude": 38.5912194524,
            "Longitude": -90.2083428154
        }
    },
    {
        "State": "Ohio",
        "Military Bases Info": {
            "Military Branch": "Army Guard",
            "Site Name": "NG Rickenbacker (MTA)",
            "Country": "United States",
            "Latitude": 39.80503102,
            "Longitude": -82.9514625254
        }
    },
    {
        "State": "Oregon",
        "Military Bases Info": {
            "Military Branch": "Army Guard",
            "Site Name": "NG Camp Withycombe Clackamas",
            "Country": "United States",
            "Latitude": 45.412447609,
            "Longitude": -122.557961254
        }
    },
    {
        "State": "California",
        "Military Bases Info": {
            "Military Branch": "Army Guard",
            "Site Name": "NG TS AFRC Los Alamitos",
            "Country": "United States",
            "Latitude": 33.7912112939,
            "Longitude": -118.052226791
        }
    },
    {
        "State": "Montana",
        "Military Bases Info": {
            "Military Branch": "Army Guard",
            "Site Name": "NG MTA Limestone Hills",
            "Country": "United States",
            "Latitude": 46.2740762237,
            "Longitude": -111.579816882
        }
    },
    {
        "State": "Michigan",
        "Military Bases Info": {
            "Military Branch": "Army Guard",
            "Site Name": "NG MTC-H Camp Grayling",
            "Country": "United States",
            "Latitude": 44.6874716798,
            "Longitude": -84.7298829884
        }
    },
    {
        "State": "Kansas",
        "Military Bases Info": {
            "Military Branch": "Army Guard",
            "Site Name": "NG Kansas",
            "Country": "United States",
            "Latitude": 39.0201681146,
            "Longitude": -95.6832394397
        }
    },
    {
        "State": "Hawaii",
        "Military Bases Info": {
            "Military Branch": "Navy",
            "Site Name": "Waipahu",
            "Country": "United States",
            "Latitude": 21.3620293704,
            "Longitude": -157.988002333
        }
    },
    {
        "State": "Florida",
        "Military Bases Info": {
            "Military Branch": "Navy",
            "Site Name": "Dredgers Key-Sigsbee",
            "Country": "United States",
            "Latitude": 24.5785674303,
            "Longitude": -81.7735965378
        }
    },
    {
        "State": "California",
        "Military Bases Info": {
            "Military Branch": "Navy",
            "Site Name": "NAVBASE San Diego CA",
            "Country": "United States",
            "Latitude": 32.6757646692,
            "Longitude": -117.122748674
        }
    },
    {
        "State": "California",
        "Military Bases Info": {
            "Military Branch": "Marine Corps",
            "Site Name": "Bridgeport",
            "Country": "United States",
            "Latitude": 38.3744532716,
            "Longitude": -119.542277539
        }
    },
    {
        "State": "Alaska",
        "Military Bases Info": {
            "Military Branch": "Air Force",
            "Site Name": "Haarp Research Station",
            "Country": "United States",
            "Latitude": 62.4083568593,
            "Longitude": -145.155004797
        }
    },
    {
        "State": "Virginia",
        "Military Bases Info": {
            "Military Branch": "Army",
            "Site Name": "Fort Lee",
            "Country": "United States",
            "Latitude": 37.2494396184,
            "Longitude": -77.3347277202
        }
    },
    {
        "State": "Ohio",
        "Military Bases Info": {
            "Military Branch": "Army",
            "Site Name": "Us Army Joint Sys Mfg CtrLima",
            "Country": "United States",
            "Latitude": 40.6996401966,
            "Longitude": -84.1328894032
        }
    },
    {
        "State": "Texas",
        "Military Bases Info": {
            "Military Branch": "Army Reserve",
            "Site Name": "Grand Prairie Reserve Complex",
            "Country": "United States",
            "Latitude": 32.7399583948,
            "Longitude": -96.9564403611
        }
    },
    {
        "State": "Virginia",
        "Military Bases Info": {
            "Military Branch": "Navy",
            "Site Name": "NAVSTA Norfolk VA",
            "Country": "United States",
            "Latitude": 36.9433080035,
            "Longitude": -76.3015136921
        }
    },
    {
        "State": "Maryland",
        "Military Bases Info": {
            "Military Branch": "Navy",
            "Site Name": "Webster Field",
            "Country": "United States",
            "Latitude": 38.145841636,
            "Longitude": -76.4278909867
        }
    },
    {
        "State": "Georgia",
        "Military Bases Info": {
            "Military Branch": "Air Force Reserve",
            "Site Name": "Dobbins ARB",
            "Country": "United States",
            "Latitude": 33.9174086513,
            "Longitude": -84.5192362187
        }
    },
    {
        "State": "Mississippi",
        "Military Bases Info": {
            "Military Branch": "Air Force",
            "Site Name": "Columbus AFB",
            "Country": "United States",
            "Latitude": 33.6413120873,
            "Longitude": -88.4511187521
        }
    },
    {
        "State": "Maine",
        "Military Bases Info": {
            "Military Branch": "Air Force Guard",
            "Site Name": "Bangor IAP",
            "Country": "United States",
            "Latitude": 44.8175673815,
            "Longitude": -68.8298013821
        }
    },
    {
        "State": "Tennessee",
        "Military Bases Info": {
            "Military Branch": "Air Force Guard",
            "Site Name": "McGhee Tyson Airport",
            "Country": "United States",
            "Latitude": 35.8114939421,
            "Longitude": -84.0036709533
        }
    },